[ {
	"headertitle" : "Toarco Toraja Map",
	"list" : [
			{
				"name" : "珈琲房",
				"address" : "北海道北広島市栄町1-4-1　コープエルフィン1Ｆ",
				"category" : "1",
				"tag" : "1",
				"lon" : "42.9766806",
				"lat" : "141.5594574",
				"tel" : "011-376-8102",
				"url" : "http://www.keycoffee.co.jp/shopmap/toraja/hokkaido/post_67",
				"done" : 0
			},
			{
				"name" : "喫茶　アップル",
				"address" : "北海道江別市4条7",
				"category" : "1",
				"tag" : "1",
				"lon" : "43.1117524",
				"lat" : "141.5548979",
				"tel" : "011-383-3055",
				"url" : "http://www.keycoffee.co.jp/shopmap/toraja/hokkaido/post_90",
				"done" : 0
			},
			{
				"name" : "デューク",
				"address" : "北海道函館市本通2-40-14",
				"category" : "1",
				"tag" : "1",
				"lon" : "41.8003083",
				"lat" : "140.7709064",
				"tel" : "0138-32-7311",
				"url" : "http://www.keycoffee.co.jp/shopmap/toraja/hokkaido/post_75",
				"done" : 0
			},
			{
				"name" : "日和茶房",
				"address" : "北海道函館市元町32－10",
				"category" : "1",
				"tag" : "1",
				"lon" : "41.7652684",
				"lat" : "140.7115007",
				"tel" : "0138-83-6651",
				"url" : "http://www.keycoffee.co.jp/shopmap/toraja/hokkaido/post_115",
				"done" : 0
			},
			{
				"name" : "軽食喫茶 グランピエ",
				"address" : "北海道釧路郡釧路町曙2丁目11-10",
				"category" : "1",
				"tag" : "1",
				"lon" : "43.0151468",
				"lat" : "144.4085179",
				"tel" : "0154-37-7555",
				"url" : "http://www.keycoffee.co.jp/shopmap/toraja/hokkaido/post_28",
				"done" : 0
			},
			{
				"name" : "まりーさんの木",
				"address" : "北海道紋別市落石町5-36-12",
				"category" : "1",
				"tag" : "1",
				"lon" : "44.3599222",
				"lat" : "143.3348707",
				"tel" : "0158-23-1511",
				"url" : "http://www.keycoffee.co.jp/shopmap/toraja/hokkaido/post_86",
				"done" : 0
			},
			{
				"name" : "あきた角館　西宮家",
				"address" : "秋田県仙北市角館町田町上丁11-1",
				"category" : "1",
				"tag" : "2",
				"lon" : "39.5929383",
				"lat" : "140.5648408",
				"tel" : "0187-52-2438",
				"url" : "http://www.keycoffee.co.jp/shopmap/toraja/tohoku/post_114",
				"done" : 0
			},
			{
				"name" : "異人館",
				"address" : "秋田県秋田市八橋本町1-1-46",
				"category" : "1",
				"tag" : "2",
				"lon" : "39.722502",
				"lat" : "140.1005865",
				"tel" : "018-864-3590",
				"url" : "http://www.keycoffee.co.jp/shopmap/toraja/tohoku/post_99",
				"done" : 0
			},
			{
				"name" : "Caf?  de   蔵",
				"address" : "岩手県花巻市湯本 1-125",
				"category" : "1",
				"tag" : "2",
				"lon" : "39.4516194",
				"lat" : "141.0696704",
				"tel" : "0198-37-2165",
				"url" : "http://www.keycoffee.co.jp/shopmap/toraja/tohoku/cafe_de",
				"done" : 0
			},
			{
				"name" : "カフェレストラン　ペニーレイン",
				"address" : "宮城県柴田郡大河原町字新南60－41",
				"category" : "1",
				"tag" : "2",
				"lon" : "38.0534728",
				"lat" : "140.7307736",
				"tel" : "0224-53-2323",
				"url" : "http://www.keycoffee.co.jp/shopmap/toraja/tohoku/post_92",
				"done" : 0
			},
			{
				"name" : "カフェ　フロリ",
				"address" : "宮城県仙台市青葉区中央1－9－33さくら野百貨店3F",
				"category" : "1",
				"tag" : "2",
				"lon" : "38.2613187",
				"lat" : "140.8799697",
				"tel" : "022-748-6350",
				"url" : "http://www.keycoffee.co.jp/shopmap/toraja/tohoku/post_91",
				"done" : 0
			},
			{
				"name" : "珈琲専科　道",
				"address" : "山形県山形市鉄砲町3-1-63",
				"category" : "1",
				"tag" : "2",
				"lon" : "38.2356461",
				"lat" : "140.3278839",
				"tel" : "023-631-2483",
				"url" : "http://www.keycoffee.co.jp/shopmap/toraja/tohoku/post_35",
				"done" : 0
			},
			{
				"name" : "道の駅　しもごう",
				"address" : "福島県南会津郡下郷町大字南倉沢字木賊844-188",
				"category" : "1",
				"tag" : "2",
				"lon" : "37.2035393",
				"lat" : "139.9163428",
				"tel" : "0241-67-3802",
				"url" : "http://www.keycoffee.co.jp/shopmap/toraja/tohoku/post_102",
				"done" : 0
			},
			{
				"name" : "カフェ・アルコ　スタツィオーネ",
				"address" : "石川県金沢市木ノ新保町1-1　金沢駅百番街くつろぎ館1F",
				"category" : "1",
				"tag" : "3",
				"lon" : "36.5800672",
				"lat" : "136.6490772",
				"tel" : "076-224-0141",
				"url" : "http://www.keycoffee.co.jp/shopmap/toraja/chubu/post_34",
				"done" : 0
			},
			{
				"name" : "カフェ・アルコ メルカート",
				"address" : "石川県金沢市青草町88番地　　近江町いちば館1F",
				"category" : "1",
				"tag" : "3",
				"lon" : "36.5715515",
				"lat" : "136.6560725",
				"tel" : "076-262-0141",
				"url" : "http://www.keycoffee.co.jp/shopmap/toraja/chubu/post_32",
				"done" : 0
			},
			{
				"name" : "カフェド・アンティーム",
				"address" : "富山県魚津市北鬼江2807",
				"category" : "1",
				"tag" : "3",
				"lon" : "36.8299061",
				"lat" : "137.4100811",
				"tel" : "0765-22-9768",
				"url" : "http://www.keycoffee.co.jp/shopmap/toraja/chubu/post_44",
				"done" : 0
			},
			{
				"name" : "クロスティ",
				"address" : "福井県越前市家久町37-1-2",
				"category" : "1",
				"tag" : "3",
				"lon" : "35.939855",
				"lat" : "136.1608879",
				"tel" : "0778-21-5440",
				"url" : "http://www.keycoffee.co.jp/shopmap/toraja/chubu/post_43",
				"done" : 0
			},
			{
				"name" : "cafe dakkura",
				"address" : "新潟県新潟市中央区西大畑町5191-9",
				"category" : "1",
				"tag" : "3",
				"lon" : "37.9284301",
				"lat" : "139.0417311",
				"tel" : "025-228-7720",
				"url" : "http://www.keycoffee.co.jp/shopmap/toraja/chubu/cafe_dakkura",
				"done" : 0
			},
			{
				"name" : "喫茶　海堂",
				"address" : "新潟県新潟市東区松浜町3710　新潟空港ターミナルビル2F",
				"category" : "1",
				"tag" : "3",
				"lon" : "37.9524095",
				"lat" : "139.1132186",
				"tel" : "025-275-2638",
				"url" : "http://www.keycoffee.co.jp/shopmap/toraja/chubu/post_85",
				"done" : 0
			},
			{
				"name" : "赤倉観光ホテル　カフェテラス",
				"address" : "新潟県妙高市田切216",
				"category" : "1",
				"tag" : "3",
				"lon" : "36.8869279",
				"lat" : "138.1773954",
				"tel" : "0255-87-2501",
				"url" : "http://www.keycoffee.co.jp/shopmap/toraja/chubu/post_73",
				"done" : 0
			},
			{
				"name" : "HATAGO 井仙　水屋",
				"address" : "新潟県南魚沼郡湯沢町大字湯沢2455",
				"category" : "1",
				"tag" : "3",
				"lon" : "36.9355909",
				"lat" : "138.8082465",
				"tel" : "025-784-3361",
				"url" : "http://www.keycoffee.co.jp/shopmap/toraja/chubu/hatago",
				"done" : 0
			},
			{
				"name" : "翁堂駅前2F喫茶室",
				"address" : "長野県松本市深志1-2-3",
				"category" : "1",
				"tag" : "3",
				"lon" : "36.2309221",
				"lat" : "137.9662879",
				"tel" : "0263-35-0808",
				"url" : "http://www.keycoffee.co.jp/shopmap/toraja/chubu/2f",
				"done" : 0
			},
			{
				"name" : "奈良井宿　深山",
				"address" : "長野県塩尻市奈良井837-101",
				"category" : "1",
				"tag" : "3",
				"lon" : "35.9678674",
				"lat" : "137.8151809",
				"tel" : "0265-34-2500",
				"url" : "http://www.keycoffee.co.jp/shopmap/toraja/chubu/post_110",
				"done" : 0
			},
			{
				"name" : "ザイデンシュトラーセン",
				"address" : "長野県上田市中丸子1623-1",
				"category" : "1",
				"tag" : "3",
				"lon" : "36.3368754",
				"lat" : "138.2711315",
				"tel" : "0268-42-6673",
				"url" : "http://www.keycoffee.co.jp/shopmap/toraja/chubu/post_101",
				"done" : 0
			},
			{
				"name" : "Cafe Bleu(カフェ  ブリュ)",
				"address" : "群馬県高崎市宮元町13丁目1番　スズラン高崎店内3Ｆ",
				"category" : "1",
				"tag" : "4",
				"lon" : "36.3230338",
				"lat" : "139.0051961",
				"tel" : "027-327-9991",
				"url" : "http://www.keycoffee.co.jp/shopmap/toraja/kanto/post_113",
				"done" : 0
			},
			{
				"name" : "西洋料理 明治の館",
				"address" : "栃木県日光市山内2339-1",
				"category" : "1",
				"tag" : "4",
				"lon" : "36.7571682",
				"lat" : "139.6023712",
				"tel" : "0288-53-3751",
				"url" : "http://www.keycoffee.co.jp/shopmap/toraja/kanto/post_82",
				"done" : 0
			},
			{
				"name" : "Caf?　de ville",
				"address" : "茨城県日立市幸町1-1-3-2",
				"category" : "1",
				"tag" : "4",
				"lon" : "36.5919104",
				"lat" : "140.6616605",
				"tel" : "0294-33-8897",
				"url" : "http://www.keycoffee.co.jp/shopmap/toraja/kanto/cafede_ville",
				"done" : 0
			},
			{
				"name" : "洋風笠間菓子 グリュイエール",
				"address" : "茨城県笠間市下市毛285",
				"category" : "1",
				"tag" : "4",
				"lon" : "36.3739004",
				"lat" : "140.2463396",
				"tel" : "0296-72-6557",
				"url" : "http://www.keycoffee.co.jp/shopmap/toraja/kanto/post_117",
				"done" : 0
			},
			{
				"name" : "エトアール",
				"address" : "東京都杉並区西荻南3-11-12",
				"category" : "1",
				"tag" : "4",
				"lon" : "35.703148",
				"lat" : "139.5996216",
				"tel" : "03-3333-2702",
				"url" : "http://www.keycoffee.co.jp/shopmap/toraja/kanto/post_121",
				"done" : 0
			},
			{
				"name" : "ラ・プレシューズ　アトレ四谷店",
				"address" : "東京都新宿区四谷1-5-25　JR四谷駅ビル1F",
				"category" : "1",
				"tag" : "4",
				"lon" : "35.6902021",
				"lat" : "139.7164592",
				"tel" : "03-3356-6559",
				"url" : "http://www.keycoffee.co.jp/shopmap/toraja/kanto/post_78",
				"done" : 0
			},
			{
				"name" : "カフェ　クレエル",
				"address" : "東京都杉並区天沼3－30－2",
				"category" : "1",
				"tag" : "4",
				"lon" : "35.7062233",
				"lat" : "139.6224167",
				"tel" : "03-3392-2222",
				"url" : "http://www.keycoffee.co.jp/shopmap/toraja/kanto/post_46",
				"done" : 0
			},
			{
				"name" : "KAWAMURA GATEAUX",
				"address" : "東京都世田谷区梅が丘1-34-1",
				"category" : "1",
				"tag" : "4",
				"lon" : "35.6564348",
				"lat" : "139.6528581",
				"tel" : "03-3427-0888",
				"url" : "http://www.keycoffee.co.jp/shopmap/toraja/kanto/kawamura_gateaux",
				"done" : 0
			},
			{
				"name" : "アワヤ洋菓子店",
				"address" : "東京都品川区東大井5-3-10",
				"category" : "1",
				"tag" : "4",
				"lon" : "35.6074737",
				"lat" : "139.7353553",
				"tel" : "03-3471-9038",
				"url" : "http://www.keycoffee.co.jp/shopmap/toraja/kanto/post_36",
				"done" : 0
			},
			{
				"name" : "レピドール ",
				"address" : "東京都大田区田園調布3-24-14",
				"category" : "1",
				"tag" : "4",
				"lon" : "35.5970954",
				"lat" : "139.6664702",
				"tel" : "03-3722-0141",
				"url" : "http://www.keycoffee.co.jp/shopmap/toraja/kanto/post_48",
				"done" : 0
			},
			{
				"name" : "Cafe処　TSUNASHIMA-EN",
				"address" : "東京都大田区多摩川1-26-1",
				"category" : "1",
				"tag" : "4",
				"lon" : "35.5617818",
				"lat" : "139.7001501",
				"tel" : "03-3758-1341",
				"url" : "http://www.keycoffee.co.jp/shopmap/toraja/kanto/cafetsunashima-en",
				"done" : 0
			},
			{
				"name" : "東京湾シンフォニークルーズ",
				"address" : "東京都港区海岸2-7-104",
				"category" : "1",
				"tag" : "4",
				"lon" : "35.6506886",
				"lat" : "139.7604738",
				"tel" : "03-3798-8101",
				"url" : "http://www.keycoffee.co.jp/shopmap/toraja/kanto/post_87",
				"done" : 0
			},
			{
				"name" : "喫茶　ローヤル",
				"address" : "東京都荒川区荒川3-61-5",
				"category" : "1",
				"tag" : "4",
				"lon" : "35.7332967",
				"lat" : "139.7792473",
				"tel" : "03-3801-2417",
				"url" : "http://www.keycoffee.co.jp/shopmap/toraja/kanto/post_76",
				"done" : 0
			},
			{
				"name" : "珈琲の店　プチボア",
				"address" : "東京都豊島区巣鴨4-26-3",
				"category" : "1",
				"tag" : "4",
				"lon" : "35.737317",
				"lat" : "139.7328395",
				"tel" : "03-3916-5681",
				"url" : "http://www.keycoffee.co.jp/shopmap/toraja/kanto/post_116",
				"done" : 0
			},
			{
				"name" : "カフェテラス　CUSTOM",
				"address" : "東京都練馬区光が丘 5-1-1 IMA　1F",
				"category" : "1",
				"tag" : "4",
				"lon" : "35.7599496",
				"lat" : "139.6281547",
				"tel" : "03-3976-1210",
				"url" : "http://www.keycoffee.co.jp/shopmap/toraja/kanto/custom",
				"done" : 0
			},
			{
				"name" : "サンコーヒー",
				"address" : "東京都多摩市関戸1-11-1京王聖蹟桜ヶ丘SC　A館3F",
				"category" : "1",
				"tag" : "4",
				"lon" : "35.6517886",
				"lat" : "139.450981",
				"tel" : "042-337-2529",
				"url" : "http://www.keycoffee.co.jp/shopmap/toraja/kanto/post_45",
				"done" : 0
			},
			{
				"name" : "Cafe ルーブル",
				"address" : "東京都立川市曙町2-9-2",
				"category" : "1",
				"tag" : "4",
				"lon" : "35.7009242",
				"lat" : "139.4158123",
				"tel" : "042-528-1130",
				"url" : "http://www.keycoffee.co.jp/shopmap/toraja/kanto/post_58",
				"done" : 0
			},
			{
				"name" : "八王子エルシィ　ラウンジ Apple Eye",
				"address" : "東京都八王子市八日町6-7",
				"category" : "1",
				"tag" : "4",
				"lon" : "35.660546",
				"lat" : "139.3290991",
				"tel" : "042-623-2111",
				"url" : "http://www.keycoffee.co.jp/shopmap/toraja/kanto/1fapple_eye",
				"done" : 0
			},
			{
				"name" : "ホットケーキ倶楽部  珈琲茶房",
				"address" : "千葉市緑区あすみが丘東2-20-3",
				"category" : "1",
				"tag" : "4",
				"lon" : "35.5249313",
				"lat" : "140.2790656",
				"tel" : "043-205-8188",
				"url" : "http://www.keycoffee.co.jp/shopmap/toraja/kanto/post_123",
				"done" : 0
			},
			{
				"name" : "caf? de COT",
				"address" : "千葉県佐倉市栄町19-5京成サンコーポ佐倉1F",
				"category" : "1",
				"tag" : "4",
				"lon" : "35.7243278",
				"lat" : "140.2291913",
				"tel" : "043-376-3286",
				"url" : "http://www.keycoffee.co.jp/shopmap/toraja/kanto/cafe_de_cot",
				"done" : 0
			},
			{
				"name" : "オンディーヌ",
				"address" : "神奈川県横浜市中区桜木町1-1-8-2　県民共済プラザビル4F",
				"category" : "1",
				"tag" : "4",
				"lon" : "35.4531304",
				"lat" : "139.6309835",
				"tel" : "045-201-3950",
				"url" : "http://www.keycoffee.co.jp/shopmap/toraja/kanto/post_57",
				"done" : 0
			},
			{
				"name" : "リアンサンドウィッチカフェ横浜店",
				"address" : "神奈川県横浜市中区弁天通1-1",
				"category" : "1",
				"tag" : "4",
				"lon" : "35.4468769",
				"lat" : "139.6408364",
				"tel" : "045-222-7055",
				"url" : "http://www.keycoffee.co.jp/shopmap/toraja/kanto/post_88",
				"done" : 0
			},
			{
				"name" : "横浜珈琲館",
				"address" : "神奈川県横浜市保土ヶ谷区川辺町3-7",
				"category" : "1",
				"tag" : "4",
				"lon" : "35.4599909",
				"lat" : "139.5984207",
				"tel" : "045-348-7517",
				"url" : "http://www.keycoffee.co.jp/shopmap/toraja/kanto/post_72",
				"done" : 1
			},
			{
				"name" : "新横浜グレイスホテル　ティーラウンジ　パレグレイス",
				"address" : "神奈川県横浜市港北区新横浜3-6-15",
				"category" : "1",
				"tag" : "4",
				"lon" : "35.5089029",
				"lat" : "139.6185039",
				"tel" : "045-474-5111",
				"url" : "http://www.keycoffee.co.jp/shopmap/toraja/kanto/post_104",
				"done" : 0
			},
			{
				"name" : "梅乃井珈琲",
				"address" : "神奈川県横浜市港南区港南台3-1-3 バーズ3F",
				"category" : "1",
				"tag" : "4",
				"lon" : "35.3749114",
				"lat" : "139.5774985",
				"tel" : "045-832-0946",
				"url" : "http://www.keycoffee.co.jp/shopmap/toraja/kanto/post_65",
				"done" : 0
			},
			{
				"name" : "ホテル グリーンプラザ箱根 ラウンジ ソレイユ",
				"address" : "神奈川県足柄下郡箱根町仙石原1244-2",
				"category" : "1",
				"tag" : "4",
				"lon" : "35.2435385",
				"lat" : "139.0009761",
				"tel" : "0460-84-8611",
				"url" : "http://www.keycoffee.co.jp/shopmap/toraja/kanto/post_79",
				"done" : 0
			},
			{
				"name" : "ベーカリー＆テーブル箱根　3Fレストラン",
				"address" : "神奈川県足柄下郡箱根町元箱根字御殿9－1",
				"category" : "1",
				"tag" : "4",
				"lon" : "35.2014989",
				"lat" : "139.031512",
				"tel" : "0460-85-1530",
				"url" : "http://www.keycoffee.co.jp/shopmap/toraja/kanto/3f",
				"done" : 0
			},
			{
				"name" : "葡露灯",
				"address" : "神奈川県海老名市国分寺台2丁目10番19号",
				"category" : "1",
				"tag" : "4",
				"lon" : "35.4395441",
				"lat" : "139.4056271",
				"tel" : "046-232-316",
				"url" : "http://www.keycoffee.co.jp/shopmap/toraja/kanto/post_125",
				"done" : 0
			},
			{
				"name" : "TEA ROOM 珈門",
				"address" : "神奈川県横須賀市野比1-10-14",
				"category" : "1",
				"tag" : "4",
				"lon" : "35.2118013",
				"lat" : "139.6853857",
				"tel" : "046-849-7095",
				"url" : "http://www.keycoffee.co.jp/shopmap/toraja/kanto/tea_room",
				"done" : 0
			},
			{
				"name" : "ルフラン新松戸店",
				"address" : "千葉県松戸市新松戸1-489",
				"category" : "1",
				"tag" : "4",
				"lon" : "35.8262556",
				"lat" : "139.9202012",
				"tel" : "047-344-0158",
				"url" : "http://www.keycoffee.co.jp/shopmap/toraja/kanto/post_70",
				"done" : 0
			},
			{
				"name" : "コーヒーハウス　Sanyo",
				"address" : "千葉県船橋市前原西2-18-1津田沼パルコ2F",
				"category" : "1",
				"tag" : "4",
				"lon" : "35.6919236",
				"lat" : "140.0215726",
				"tel" : "0474-72-6150",
				"url" : "http://www.keycoffee.co.jp/shopmap/toraja/kanto/sanyo",
				"done" : 0
			},
			{
				"name" : "kokoカフェ",
				"address" : "埼玉県行田市駒形2-8-15",
				"category" : "1",
				"tag" : "4",
				"lon" : "36.1303552",
				"lat" : "139.4536712",
				"tel" : "048-552-1891",
				"url" : "http://www.keycoffee.co.jp/shopmap/toraja/kanto/assorto_1",
				"done" : 0
			},
			{
				"name" : "カフェ　ログハット",
				"address" : "埼玉県春日部市増田新田15-2",
				"category" : "1",
				"tag" : "4",
				"lon" : "35.9496211",
				"lat" : "139.7494461",
				"tel" : "048-738-6292",
				"url" : "http://www.keycoffee.co.jp/shopmap/toraja/kanto/post_50",
				"done" : 0
			},
			{
				"name" : "カフェレストラン　しらかば",
				"address" : "埼玉県さいたま市緑区中尾1317-11　2Ｆ",
				"category" : "1",
				"tag" : "4",
				"lon" : "35.8768472",
				"lat" : "139.685417",
				"tel" : "048-810-4070",
				"url" : "http://www.keycoffee.co.jp/shopmap/toraja/kanto/post_97",
				"done" : 0
			},
			{
				"name" : "VINE CAFE",
				"address" : "埼玉県さいたま市南区南浦和2-39-2",
				"category" : "1",
				"tag" : "4",
				"lon" : "35.8477254",
				"lat" : "139.6702276",
				"tel" : "048-816-4499",
				"url" : "http://www.keycoffee.co.jp/shopmap/toraja/kanto/vine_cafe",
				"done" : 0
			},
			{
				"name" : "ケーキ・カフェレストラン　ポプリ",
				"address" : "静岡県島田市大津通4-3",
				"category" : "1",
				"tag" : "5",
				"lon" : "34.8352609",
				"lat" : "138.1776714",
				"tel" : "0547-36-7771",
				"url" : "http://www.keycoffee.co.jp/shopmap/toraja/chubu/post_84",
				"done" : 0
			},
			{
				"name" : "CAFE HEART",
				"address" : "愛知県名古屋市中村区八社1-200",
				"category" : "1",
				"tag" : "5",
				"lon" : "35.1520428",
				"lat" : "136.8395999",
				"tel" : "052-411-1182",
				"url" : "http://www.keycoffee.co.jp/shopmap/toraja/chubu/post_107",
				"done" : 0
			},
			{
				"name" : "Mistral",
				"address" : "愛知県あま市篠田長堀7",
				"category" : "1",
				"tag" : "5",
				"lon" : "35.1831656",
				"lat" : "136.7865096",
				"tel" : "052-449-1830",
				"url" : "http://www.keycoffee.co.jp/shopmap/toraja/chubu/mistral_1",
				"done" : 0
			},
			{
				"name" : "パティスリー　モンパル",
				"address" : "愛知県名古屋市中村区大門町20-3",
				"category" : "1",
				"tag" : "5",
				"lon" : "35.1705188",
				"lat" : "136.864663",
				"tel" : "052-461-7100",
				"url" : "http://www.keycoffee.co.jp/shopmap/toraja/chubu/post_51",
				"done" : 0
			},
			{
				"name" : "カフェ ジャンシアーヌ JR名古屋駅店",
				"address" : "愛知県名古屋市中村区名駅1-1-4　名古屋中央通り",
				"category" : "1",
				"tag" : "5",
				"lon" : "35.1698058",
				"lat" : "136.8886609",
				"tel" : "052-533-6001",
				"url" : "http://www.keycoffee.co.jp/shopmap/toraja/chubu/_jr",
				"done" : 0
			},
			{
				"name" : "珈琲　三ツ屋",
				"address" : "愛知県東海市名和町後酉91-1",
				"category" : "1",
				"tag" : "5",
				"lon" : "35.0633888",
				"lat" : "136.9228015",
				"tel" : "052-601-1560",
				"url" : "http://www.keycoffee.co.jp/shopmap/toraja/chubu/post_54",
				"done" : 0
			},
			{
				"name" : "チェリーみなと店",
				"address" : "愛知県名古屋市港区港明2-4-1",
				"category" : "1",
				"tag" : "5",
				"lon" : "35.1084194",
				"lat" : "136.8846002",
				"tel" : "052-653-8302",
				"url" : "http://www.keycoffee.co.jp/shopmap/toraja/chubu/post_108",
				"done" : 0
			},
			{
				"name" : "カフェ・ド・フレーズ",
				"address" : "愛知県名古屋市千種区茶屋が坂1-21-15",
				"category" : "1",
				"tag" : "5",
				"lon" : "35.185126",
				"lat" : "136.9619929",
				"tel" : "052-723-1300",
				"url" : "http://www.keycoffee.co.jp/shopmap/toraja/chubu/post_52",
				"done" : 0
			},
			{
				"name" : "カフェChie",
				"address" : "愛知県豊橋市青竹町字八間西180-1",
				"category" : "1",
				"tag" : "5",
				"lon" : "34.7598185",
				"lat" : "137.3457506",
				"tel" : "0532-31-0198",
				"url" : "http://www.keycoffee.co.jp/shopmap/toraja/chubu/chie",
				"done" : 0
			},
			{
				"name" : "カフェレスト　ロダン朝倉店",
				"address" : "愛知県知多市朝倉町292",
				"category" : "1",
				"tag" : "5",
				"lon" : "34.9897952",
				"lat" : "136.8677831",
				"tel" : "0562－33－0311",
				"url" : "http://www.keycoffee.co.jp/shopmap/toraja/chubu/post_98",
				"done" : 0
			},
			{
				"name" : "CAFE POLO21",
				"address" : "愛知県知多市寺本新町1-114",
				"category" : "1",
				"tag" : "5",
				"lon" : "34.995442",
				"lat" : "136.8768039",
				"tel" : "0562-33-7273",
				"url" : "http://www.keycoffee.co.jp/shopmap/toraja/chubu/cafe_polo21",
				"done" : 0
			},
			{
				"name" : "コーヒーラウンジ　ルポー",
				"address" : "愛知県岡崎市康生町515番地33 岡崎ニューグランドホテル1F",
				"category" : "1",
				"tag" : "5",
				"lon" : "34.9558348",
				"lat" : "137.1612695",
				"tel" : "0564-21-5111",
				"url" : "http://www.keycoffee.co.jp/shopmap/toraja/chubu/post_60",
				"done" : 0
			},
			{
				"name" : "珈琲＆ケーキ　ビバリーヒルズ",
				"address" : "愛知県岡崎市羽根町大池159-1 ",
				"category" : "1",
				"tag" : "5",
				"lon" : "34.9210732",
				"lat" : "137.1722724",
				"tel" : "0564-54-1955 ",
				"url" : "http://www.keycoffee.co.jp/shopmap/toraja/chubu/post_42",
				"done" : 0
			},
			{
				"name" : "喫茶　ゴールド",
				"address" : "愛知県弥富市平島町五反割85-4",
				"category" : "1",
				"tag" : "5",
				"lon" : "35.1099078",
				"lat" : "136.7424433",
				"tel" : "0567-65-3575",
				"url" : "http://www.keycoffee.co.jp/shopmap/toraja/chubu/post_109",
				"done" : 0
			},
			{
				"name" : "COFFEE HOUSE カフェロード",
				"address" : "愛知県北名古屋市鹿田坂巻135",
				"category" : "1",
				"tag" : "5",
				"lon" : "35.2559725",
				"lat" : "136.8760148",
				"tel" : "0568-22-3321",
				"url" : "http://www.keycoffee.co.jp/shopmap/toraja/chubu/coffee_house",
				"done" : 0
			},
			{
				"name" : "珈琲 やさか",
				"address" : "愛知県小牧市田県町92　YASAKAビル1F",
				"category" : "1",
				"tag" : "5",
				"lon" : "35.3153081",
				"lat" : "136.9399672",
				"tel" : "0568-73-4335",
				"url" : "http://www.keycoffee.co.jp/shopmap/toraja/chubu/post_5",
				"done" : 0
			},
			{
				"name" : "カフェ　ピノ",
				"address" : "愛知県春日井市六軒屋町東丘22　ザ・モール春日井内3F",
				"category" : "1",
				"tag" : "5",
				"lon" : "35.2558684",
				"lat" : "136.9770867",
				"tel" : "0568-84-4730",
				"url" : "http://www.keycoffee.co.jp/shopmap/toraja/chubu/post_53",
				"done" : 0
			},
			{
				"name" : "カフェテラス　ロダン青山店",
				"address" : "愛知県半田市青山3-26-9",
				"category" : "1",
				"tag" : "5",
				"lon" : "34.8759513",
				"lat" : "136.9136056",
				"tel" : "0569-23-6031",
				"url" : "http://www.keycoffee.co.jp/shopmap/toraja/chubu/post_96",
				"done" : 0
			},
			{
				"name" : "caf? sora",
				"address" : "愛知県一宮市音羽2-9-30",
				"category" : "1",
				"tag" : "5",
				"lon" : "35.3095503",
				"lat" : "136.795353",
				"tel" : "0586-71-1881",
				"url" : "http://www.keycoffee.co.jp/shopmap/toraja/chubu/cafe_sora",
				"done" : 0
			},
			{
				"name" : "Cafe teria KITRI（カフェテリア　キトリ）",
				"address" : "愛知県名古屋市緑区大将ケ根1-2602",
				"category" : "1",
				"tag" : "5",
				"lon" : "35.0633468",
				"lat" : "136.9835469",
				"tel" : "070-5567-8688",
				"url" : "http://www.keycoffee.co.jp/shopmap/toraja/chubu/cafeteriakitri",
				"done" : 0
			},
			{
				"name" : "カフェ ダイニング アッシュ",
				"address" : "岐阜県関市稲口250-1",
				"category" : "1",
				"tag" : "5",
				"lon" : "35.4709325",
				"lat" : "136.9145735",
				"tel" : "0575-36-4192",
				"url" : "http://www.keycoffee.co.jp/shopmap/toraja/chubu/post_81",
				"done" : 0
			},
			{
				"name" : "さくら珈琲　岩地店",
				"address" : "岐阜県岐阜市岩地2-3-2",
				"category" : "1",
				"tag" : "5",
				"lon" : "35.4075563",
				"lat" : "136.8065439",
				"tel" : "058-240-3330",
				"url" : "http://www.keycoffee.co.jp/shopmap/toraja/chubu/post_55",
				"done" : 0
			},
			{
				"name" : "さくら珈琲　鏡島店",
				"address" : "岐阜県岐阜市西荘3-1-12",
				"category" : "1",
				"tag" : "5",
				"lon" : "35.4123883",
				"lat" : "136.7277336",
				"tel" : "058-252-4566",
				"url" : "http://www.keycoffee.co.jp/shopmap/toraja/chubu/post_68",
				"done" : 0
			},
			{
				"name" : "珈琲館　櫟（クヌギ）",
				"address" : "岐阜県本巣市福島字川西336-1",
				"category" : "1",
				"tag" : "5",
				"lon" : "35.4830469",
				"lat" : "136.6787656",
				"tel" : "058-323-6789",
				"url" : "http://www.keycoffee.co.jp/shopmap/toraja/chubu/post_119",
				"done" : 0
			},
			{
				"name" : "サンローヤル",
				"address" : "岐阜県揖斐郡池田町本郷1368-4",
				"category" : "1",
				"tag" : "5",
				"lon" : "35.4444029",
				"lat" : "136.5712232",
				"tel" : "0585-45-2876",
				"url" : "http://www.keycoffee.co.jp/shopmap/toraja/chubu/post_69",
				"done" : 0
			},
			{
				"name" : "カップジュビー",
				"address" : "三重県伊勢市宇治今在家町30-2",
				"category" : "1",
				"tag" : "5",
				"lon" : "34.4610207",
				"lat" : "136.7235072",
				"tel" : "0596-23-8560",
				"url" : "http://www.keycoffee.co.jp/shopmap/toraja/kansai/post_41",
				"done" : 0
			},
			{
				"name" : "ブルームズベリ",
				"address" : "大阪府豊中市新千里東町1-5-2 千里セルシー1F",
				"category" : "1",
				"tag" : "6",
				"lon" : "34.8085238",
				"lat" : "135.4958812",
				"tel" : "06-6832-8905",
				"url" : "http://www.keycoffee.co.jp/shopmap/toraja/kansai/post_38",
				"done" : 0
			},
			{
				"name" : "ラリー",
				"address" : "大阪府寝屋川市東大利町12-26",
				"category" : "1",
				"tag" : "6",
				"lon" : "34.7637042",
				"lat" : "135.6178591",
				"tel" : "072-827-3046",
				"url" : "http://www.keycoffee.co.jp/shopmap/toraja/kansai/post_59",
				"done" : 0
			},
			{
				"name" : "喫茶　ロン",
				"address" : "大阪府枚方市岡東町12-3-3-310 サンプラザビル3F",
				"category" : "1",
				"tag" : "6",
				"lon" : "34.6937378",
				"lat" : "135.5021651",
				"tel" : "072-844-0709 　",
				"url" : "http://www.keycoffee.co.jp/shopmap/toraja/kansai/post_66",
				"done" : 0
			},
			{
				"name" : "Greiner's ACTA東館店",
				"address" : "兵庫県西宮市北口町1-2-220",
				"category" : "1",
				"tag" : "6",
				"lon" : "34.7472874",
				"lat" : "135.3583546",
				"tel" : "079-869-0970",
				"url" : "http://www.keycoffee.co.jp/shopmap/toraja/kansai/greiners_acta",
				"done" : 0
			},
			{
				"name" : "珈琲専門店　パルレ",
				"address" : "山口県下関市竹崎町4-4-8　シーモール専門店街　味の四番街",
				"category" : "1",
				"tag" : "7",
				"lon" : "33.9527866",
				"lat" : "130.9245327",
				"tel" : "083-234-3841",
				"url" : "http://www.keycoffee.co.jp/shopmap/toraja/chugoku/post_56",
				"done" : 0
			},
			{
				"name" : "HOT・POINT",
				"address" : "山口県宇部市恩田町1-3-6",
				"category" : "1",
				"tag" : "7",
				"lon" : "33.9465679",
				"lat" : "131.265932",
				"tel" : "0836-32-9108",
				"url" : "http://www.keycoffee.co.jp/shopmap/toraja/chugoku/hotpoint",
				"done" : 0
			},
			{
				"name" : "爽健美食 心菜　上乃木店　",
				"address" : "島根県松江市上乃木7-12-64",
				"category" : "1",
				"tag" : "7",
				"lon" : "35.4453848",
				"lat" : "133.0671715",
				"tel" : "0852-23-9100",
				"url" : "http://www.keycoffee.co.jp/shopmap/toraja/chugoku/post_61",
				"done" : 0
			},
			{
				"name" : "緑と音の館　爽健美食 心菜　西津田店",
				"address" : "島根県松江市西津田10-13-27",
				"category" : "1",
				"tag" : "7",
				"lon" : "35.4546146",
				"lat" : "133.0814256",
				"tel" : "0852-33-7073",
				"url" : "http://www.keycoffee.co.jp/shopmap/toraja/chugoku/post_62",
				"done" : 0
			},
			{
				"name" : "ティールーム　ロダン",
				"address" : "岡山県岡山市北区柳町2-6-25　朝日生命ビル1F",
				"category" : "1",
				"tag" : "7",
				"lon" : "34.6574853",
				"lat" : "133.9197185",
				"tel" : "086-233-9351",
				"url" : "http://www.keycoffee.co.jp/shopmap/toraja/chugoku/post_39",
				"done" : 0
			},
			{
				"name" : "西市珈琲舎",
				"address" : "岡山県岡山市南区西市301-1",
				"category" : "1",
				"tag" : "7",
				"lon" : "34.634828",
				"lat" : "133.9009713",
				"tel" : "086-242-2400",
				"url" : "http://www.keycoffee.co.jp/shopmap/toraja/chugoku/post_37",
				"done" : 0
			},
			{
				"name" : "‐熟成肉‐　武田屋",
				"address" : "岡山県倉敷市新田2162－3",
				"category" : "1",
				"tag" : "7",
				"lon" : "34.5837302",
				"lat" : "133.7840751",
				"tel" : "086-428-7800",
				"url" : "http://www.keycoffee.co.jp/shopmap/toraja/chugoku/post_71",
				"done" : 0
			},
			{
				"name" : "名物かまど総本店",
				"address" : "香川県坂出市江尻町1247",
				"category" : "1",
				"tag" : "7",
				"lon" : "34.3163722",
				"lat" : "133.8735872",
				"tel" : "0877-46-6600",
				"url" : "http://www.keycoffee.co.jp/shopmap/toraja/chugoku/post_118",
				"done" : 0
			},
			{
				"name" : "JRホテルクレメント高松　フォンティーヌ",
				"address" : "香川県高松市浜ノ町1-1",
				"category" : "1",
				"tag" : "7",
				"lon" : "34.3520094",
				"lat" : "134.048421",
				"tel" : "087-811-1111",
				"url" : "http://www.keycoffee.co.jp/shopmap/toraja/chugoku/jr",
				"done" : 0
			},
			{
				"name" : "ライフタイム",
				"address" : "高知県高知市横内314",
				"category" : "1",
				"tag" : "7",
				"lon" : "33.5664767",
				"lat" : "133.502035",
				"tel" : "088-872-5125",
				"url" : "http://www.keycoffee.co.jp/shopmap/toraja/chugoku/post_103",
				"done" : 0
			},
			{
				"name" : "銀のすぷーん　久留米本店",
				"address" : "福岡県久留米市諏訪野町2721",
				"category" : "1",
				"tag" : "8",
				"lon" : "33.3148871",
				"lat" : "130.5275299",
				"tel" : "0120-86-8839",
				"url" : "http://www.keycoffee.co.jp/shopmap/toraja/kyushu/post_49",
				"done" : 0
			},
			{
				"name" : "ホテルクリオコート博多　カフェド　エルテ",
				"address" : "福岡県福岡市博多区博多駅中央街5番3号",
				"category" : "1",
				"tag" : "8",
				"lon" : "33.5897051",
				"lat" : "130.4219917",
				"tel" : "092-472-1111",
				"url" : "http://www.keycoffee.co.jp/shopmap/toraja/kyushu/post_89",
				"done" : 0
			},
			{
				"name" : "ティールーム　たかはし",
				"address" : "福岡県福岡市博多区千代1-17-1",
				"category" : "1",
				"tag" : "8",
				"lon" : "33.6023482",
				"lat" : "130.414617",
				"tel" : "092-632-0160",
				"url" : "http://www.keycoffee.co.jp/shopmap/toraja/kyushu/post_111",
				"done" : 0
			},
			{
				"name" : "すいげつ",
				"address" : "福岡県北九州市門司区元清滝町5-22",
				"category" : "1",
				"tag" : "8",
				"lon" : "33.9385388",
				"lat" : "130.9614877",
				"tel" : "093-331-2631",
				"url" : "http://www.keycoffee.co.jp/shopmap/toraja/kyushu/post_112",
				"done" : 0
			},
			{
				"name" : "萃香園ホテル ティーラウンジ",
				"address" : "福岡県久留米市櫛原町87",
				"category" : "1",
				"tag" : "8",
				"lon" : "33.3209142",
				"lat" : "130.5141063",
				"tel" : "0942-35-5351",
				"url" : "http://www.keycoffee.co.jp/shopmap/toraja/kyushu/post_83",
				"done" : 0
			},
			{
				"name" : "OHARA",
				"address" : "福岡県大牟田市泉町2-6",
				"category" : "1",
				"tag" : "8",
				"lon" : "33.0349285",
				"lat" : "130.4498655",
				"tel" : "0944-52-1101",
				"url" : "http://www.keycoffee.co.jp/shopmap/toraja/kyushu/ohara",
				"done" : 0
			},
			{
				"name" : "ウォールデン",
				"address" : "福岡県朝倉市甘木423-4",
				"category" : "1",
				"tag" : "8",
				"lon" : "33.4085718",
				"lat" : "130.6536133",
				"tel" : "0946-24-8844",
				"url" : "http://www.keycoffee.co.jp/shopmap/toraja/kyushu/post_120",
				"done" : 0
			},
			{
				"name" : "唐津シーサイドホテル  LOUNGE CASTLE",
				"address" : "佐賀県唐津市東唐津4-182",
				"category" : "1",
				"tag" : "8",
				"lon" : "33.4484827",
				"lat" : "129.9901405",
				"tel" : "0955-75-3300",
				"url" : "http://www.keycoffee.co.jp/shopmap/toraja/kyushu/loungecastle",
				"done" : 0
			},
			{
				"name" : "カロム・カフェ",
				"address" : "長崎県長崎市浜町9-8　カロムビル1F",
				"category" : "1",
				"tag" : "8",
				"lon" : "32.7436557",
				"lat" : "129.8789393",
				"tel" : "095-820-5240",
				"url" : "http://www.keycoffee.co.jp/shopmap/toraja/kyushu/post_63",
				"done" : 0
			},
			{
				"name" : "喫茶らんぶる",
				"address" : "長崎県南松浦郡新上五島町有川郷大橋2716",
				"category" : "1",
				"tag" : "8",
				"lon" : "32.982502",
				"lat" : "129.112847",
				"tel" : "0959－42－2120",
				"url" : "http://www.keycoffee.co.jp/shopmap/toraja/kyushu/post_94",
				"done" : 0
			},
			{
				"name" : "喫茶　四季",
				"address" : "熊本県熊本市中央区桜町3-22　県民百貨店8F",
				"category" : "1",
				"tag" : "8",
				"lon" : "32.799837",
				"lat" : "130.703736",
				"tel" : "096-322-1111",
				"url" : "http://www.keycoffee.co.jp/shopmap/toraja/kyushu/post_100",
				"done" : 0
			},
			{
				"name" : "マザーグース",
				"address" : "熊本県熊本市中央区渡鹿7-8-53豊ビル1F",
				"category" : "1",
				"tag" : "8",
				"lon" : "32.8080017",
				"lat" : "130.7370626",
				"tel" : "096-372-8844",
				"url" : "http://www.keycoffee.co.jp/shopmap/toraja/kyushu/post_122",
				"done" : 0
			},
			{
				"name" : "珈琲　Brain　(コーヒー ブレーン）",
				"address" : "宮崎県児湯郡高鍋町大字南高鍋7161-63",
				"category" : "1",
				"tag" : "8",
				"lon" : "32.1203937",
				"lat" : "131.4984806",
				"tel" : "0983-22-3996",
				"url" : "http://www.keycoffee.co.jp/shopmap/toraja/kyushu/brain_1",
				"done" : 0
			},
			{
				"name" : "宮崎観光ホテル　ティーラウンジひまわり",
				"address" : "宮崎県宮崎市松山1-1-1",
				"category" : "1",
				"tag" : "8",
				"lon" : "31.9057768",
				"lat" : "131.4258323",
				"tel" : "0985-27-1212",
				"url" : "http://www.keycoffee.co.jp/shopmap/toraja/kyushu/post_77",
				"done" : 0
			} ]
} ]
